{"type":"FeatureCollection","features":[
{"type":"Feature","id":"01","geometry":{"type":"Point","coordinates":[-86.766233,33.001471]},"properties":{"name":"Alabama","records":844,"population":4858979}},
{"type":"Feature","id":"02","geometry":{"type":"Point","coordinates":[-148.716968,61.288254]},"properties":{"name":"Alaska","records":426,"population":738432}},
{"type":"Feature","id":"04","geometry":{"type":"Point","coordinates":[-111.828711,33.373506]},"properties":{"name":"Arizona","records":3246,"population":6828065}},
{"type":"Feature","id":"05","geometry":{"type":"Point","coordinates":[-92.576816,35.080251]},"properties":{"name":"Arkansas","records":746,"population":2978204}},
{"type":"Feature","id":"06","geometry":{"type":"Point","coordinates":[-119.355165,35.458606]},"properties":{"name":"California","records":10862,"population":39144818}},
{"type":"Feature","id":"08","geometry":{"type":"Point","coordinates":[-105.203628,39.500656]},"properties":{"name":"Colorado","records":1816,"population":5456574}},
{"type":"Feature","id":"09","geometry":{"type":"Point","coordinates":[-72.874365,41.494852]},"properties":{"name":"Connecticut","records":1079,"population":3590886}},
{"type":"Feature","id":"10","geometry":{"type":"Point","coordinates":[-75.561908,39.397164]},"properties":{"name":"Delaware","records":216,"population":945934}},
{"type":"Feature","id":"11","geometry":{"type":"Point","coordinates":[-77.014001,38.910092]},"properties":{"name":"District of Columbia","records":103,"population":672228}},
{"type":"Feature","id":"12","geometry":{"type":"Point","coordinates":[-81.634622,27.795850]},"properties":{"name":"Florida","records":5016,"population":20271272}},
{"type":"Feature","id":"13","geometry":{"type":"Point","coordinates":[-83.868887,33.332208]},"properties":{"name":"Georgia","records":1609,"population":10214860}},
{"type":"Feature","id":"15","geometry":{"type":"Point","coordinates":[-157.524452,21.146768]},"properties":{"name":"Hawaii","records":419,"population":1431603}},
{"type":"Feature","id":"16","geometry":{"type":"Point","coordinates":[-115.133222,44.242605]},"properties":{"name":"Idaho","records":701,"population":1654930}},
{"type":"Feature","id":"17","geometry":{"type":"Point","coordinates":[-88.380238,41.278216]},"properties":{"name":"Illinois","records":2874,"population":12859995}},
{"type":"Feature","id":"18","geometry":{"type":"Point","coordinates":[-86.261515,40.163935]},"properties":{"name":"Indiana","records":1568,"population":6619680}},
{"type":"Feature","id":"19","geometry":{"type":"Point","coordinates":[-93.049161,41.960392]},"properties":{"name":"Iowa","records":791,"population":3123899}},
{"type":"Feature","id":"20","geometry":{"type":"Point","coordinates":[-96.536052,38.454303]},"properties":{"name":"Kansas","records":727,"population":2911641}},
{"type":"Feature","id":"21","geometry":{"type":"Point","coordinates":[-85.241819,37.808159]},"properties":{"name":"Kentucky","records":1013,"population":4425092}},
{"type":"Feature","id":"22","geometry":{"type":"Point","coordinates":[-91.457133,30.699270]},"properties":{"name":"Louisiana","records":733,"population":4670724}},
{"type":"Feature","id":"23","geometry":{"type":"Point","coordinates":[-69.719931,44.313614]},"properties":{"name":"Maine","records":710,"population":1329328}},
{"type":"Feature","id":"24","geometry":{"type":"Point","coordinates":[-76.797396,39.145653]},"properties":{"name":"Maryland","records":1097,"population":6006401}},
{"type":"Feature","id":"25","geometry":{"type":"Point","coordinates":[-71.363628,42.271831]},"properties":{"name":"Massachusetts","records":1558,"population":6794422}},
{"type":"Feature","id":"26","geometry":{"type":"Point","coordinates":[-84.170753,42.866412]},"properties":{"name":"Michigan","records":2277,"population":9922576}},
{"type":"Feature","id":"27","geometry":{"type":"Point","coordinates":[-93.583003,45.210782]},"properties":{"name":"Minnesota","records":1248,"population":5489594}},
{"type":"Feature","id":"28","geometry":{"type":"Point","coordinates":[-89.593164,32.566420]},"properties":{"name":"Mississippi","records":492,"population":2992333}},
{"type":"Feature","id":"29","geometry":{"type":"Point","coordinates":[-92.153770,38.437715]},"properties":{"name":"Missouri","records":1722,"population":6083672}},
{"type":"Feature","id":"30","geometry":{"type":"Point","coordinates":[-111.209708,46.813302]},"properties":{"name":"Montana","records":607,"population":1032949}},
{"type":"Feature","id":"31","geometry":{"type":"Point","coordinates":[-97.403875,41.183753]},"properties":{"name":"Nebraska","records":426,"population":1896190}},
{"type":"Feature","id":"32","geometry":{"type":"Point","coordinates":[-116.304648,37.165965]},"properties":{"name":"Nevada","records":1093,"population":2890845}},
{"type":"Feature","id":"33","geometry":{"type":"Point","coordinates":[-71.463342,43.153046]},"properties":{"name":"New Hampshire","records":682,"population":1330608}},
{"type":"Feature","id":"34","geometry":{"type":"Point","coordinates":[-74.428055,40.438458]},"properties":{"name":"New Jersey","records":1706,"population":8958013}},
{"type":"Feature","id":"35","geometry":{"type":"Point","coordinates":[-106.342108,34.623012]},"properties":{"name":"New Mexico","records":1002,"population":2085109}},
{"type":"Feature","id":"36","geometry":{"type":"Point","coordinates":[-74.645228,41.507548]},"properties":{"name":"New York","records":3653,"population":19795791}},
{"type":"Feature","id":"37","geometry":{"type":"Point","coordinates":[-79.667654,35.553334]},"properties":{"name":"North Carolina","records":2154,"population":10042802}},
{"type":"Feature","id":"38","geometry":{"type":"Point","coordinates":[-99.334736,47.375168]},"properties":{"name":"North Dakota","records":160,"population":756927}},
{"type":"Feature","id":"39","geometry":{"type":"Point","coordinates":[-82.749366,40.480854]},"properties":{"name":"Ohio","records":2755,"population":11613423}},
{"type":"Feature","id":"40","geometry":{"type":"Point","coordinates":[-96.834653,35.597940]},"properties":{"name":"Oklahoma","records":872,"population":3911338}},
{"type":"Feature","id":"41","geometry":{"type":"Point","coordinates":[-122.579524,44.732273]},"properties":{"name":"Oregon","records":2188,"population":4028977}},
{"type":"Feature","id":"42","geometry":{"type":"Point","coordinates":[-77.075925,40.463528]},"properties":{"name":"Pennsylvania","records":2964,"population":12802503}},
{"type":"Feature","id":"44","geometry":{"type":"Point","coordinates":[-71.448902,41.753318]},"properties":{"name":"Rhode Island","records":355,"population":1056298}},
{"type":"Feature","id":"45","geometry":{"type":"Point","coordinates":[-81.032387,34.034551]},"properties":{"name":"South Carolina","records":1301,"population":4896146}},
{"type":"Feature","id":"46","geometry":{"type":"Point","coordinates":[-99.043799,44.047502]},"properties":{"name":"South Dakota","records":222,"population":858469}},
{"type":"Feature","id":"47","geometry":{"type":"Point","coordinates":[-86.397772,35.795862]},"properties":{"name":"Tennessee","records":1372,"population":6600299}},
{"type":"Feature","id":"48","geometry":{"type":"Point","coordinates":[-97.388631,30.943149]},"properties":{"name":"Texas","records":4122,"population":27469114}},
{"type":"Feature","id":"49","geometry":{"type":"Point","coordinates":[-111.900160,40.438987]},"properties":{"name":"Utah","records":829,"population":2995919}},
{"type":"Feature","id":"50","geometry":{"type":"Point","coordinates":[-72.814309,44.081127]},"properties":{"name":"Vermont","records":369,"population":626042}},
{"type":"Feature","id":"51","geometry":{"type":"Point","coordinates":[-77.835857,37.750345]},"properties":{"name":"Virginia","records":1649,"population":8382993}},
{"type":"Feature","id":"53","geometry":{"type":"Point","coordinates":[-121.624501,47.341728]},"properties":{"name":"Washington","records":4685,"population":7170351}},
{"type":"Feature","id":"54","geometry":{"type":"Point","coordinates":[-80.820221,38.767195]},"properties":{"name":"West Virginia","records":578,"population":1844128}},
{"type":"Feature","id":"55","geometry":{"type":"Point","coordinates":[-89.001006,43.728544]},"properties":{"name":"Wisconsin","records":1489,"population":5771337}},
{"type":"Feature","id":"56","geometry":{"type":"Point","coordinates":[-107.008835,42.675762]},"properties":{"name":"Wyoming","records":238,"population":586107}},
{"type":"Feature","id":"72","geometry":{"type":"Point","coordinates":[-66.58765,18.19958]},"properties":{"code":"PR","name":"Puerto Rico","records":35,"population":3474182}}
]}
